{
  "type": "FeatureCollection",
  "features": [
    {
      "type": "Feature",
      "properties": {
        "name": "Eldon Hole"
      },
      "geometry": {
        "type": "Point",
        "coordinates": [
          -1.835621,
          53.301829
        ]
      }
    },
    {
      "type": "Feature",
      "properties": {
        "name": "Harboro' Rocks"
      },
      "geometry": {
        "type": "Point",
        "coordinates": [
          -1.639134,
          53.094839
        ]
      }
    },
    {
      "type": "Feature",
      "properties": {
        "name": "Lathkill Cavern"
      },
      "geometry": {
        "type": "Point",
        "coordinates": [
          -1.745827,
          53.189876
        ]
      }
    },
    {
      "type": "Feature",
      "properties": {
        "name": "Peak Cavern"
      },
      "geometry": {
        "type": "Point",
        "coordinates": [
          -1.763402,
          53.326719
        ]
      }
    },
    {
      "type": "Feature",
      "properties": {
        "name": "Poole's Cavern"
      },
      "geometry": {
        "type": "Point",
        "coordinates": [
          -1.935875,
          53.25239
        ]
      }
    },
    {
      "type": "Feature",
      "properties": {
        "name": "Thor's Cave"
      },
      "geometry": {
        "type": "Point",
        "coordinates": [
          -1.854876,
          53.09171
        ]
      }
    }
  ]
}