{
  "type": "FeatureCollection",
  "features": [
    {
      "type": "Feature",
      "properties": {
        "name": "Arbor Low"
      },
      "geometry": {
        "type": "Point",
        "coordinates": [
          -1.76171,
          53.168908
        ]
      }
    },
    {
      "type": "Feature",
      "properties": {
        "name": "Barbrook"
      },
      "geometry": {
        "type": "Point",
        "coordinates": [
          -1.583574,
          53.276504
        ]
      }
    },
    {
      "type": "Feature",
      "properties": {
        "name": "Hordron Edge"
      },
      "geometry": {
        "type": "Point",
        "coordinates": [
          -1.654973,
          53.393088
        ]
      }
    },
    {
      "type": "Feature",
      "properties": {
        "name": "Nine Ladies"
      },
      "geometry": {
        "type": "Point",
        "coordinates": [
          -1.628812,
          53.168002
        ]
      }
    },
    {
      "type": "Feature",
      "properties": {
        "name": "Nine Stones"
      },
      "geometry": {
        "type": "Point",
        "coordinates": [
          -1.667765,
          53.160488
        ]
      }
    },
    {
      "type": "Feature",
      "properties": {
        "name": "Wet Withens"
      },
      "geometry": {
        "type": "Point",
        "coordinates": [
          -1.663059,
          53.307523
        ]
      }
    }
  ]
}