{
  "type": "FeatureCollection",
  "features": [
    {
      "type": "Feature",
      "properties": {
        "name": "Bellhag Wood"
      },
      "geometry": {
        "type": "Point",
        "coordinates": [
          -1.770404,
          53.393869
        ]
      }
    },
    {
      "type": "Feature",
      "properties": {
        "name": "Dovedale Wood"
      },
      "geometry": {
        "type": "Point",
        "coordinates": [
          -1.78706,
          53.071599
        ]
      }
    },
    {
      "type": "Feature",
      "properties": {
        "name": "Kinder Bank"
      },
      "geometry": {
        "type": "Point",
        "coordinates": [
          -1.946447,
          53.379291
        ]
      }
    },
    {
      "type": "Feature",
      "properties": {
        "name": "Lud's Church"
      },
      "geometry": {
        "type": "Point",
        "coordinates": [
          -2.032297,
          53.19343
        ]
      }
    },
    {
      "type": "Feature",
      "properties": {
        "name": "Monsal Dale"
      },
      "geometry": {
        "type": "Point",
        "coordinates": [
          -1.724052,
          53.24048
        ]
      }
    },
    {
      "type": "Feature",
      "properties": {
        "name": "Padley Gorge"
      },
      "geometry": {
        "type": "Point",
        "coordinates": [
          -1.621745,
          53.310813
        ]
      }
    }
  ]
}