{
  "type": "FeatureCollection",
  "features": [
    {
      "type": "Feature",
      "properties": {
        "name": "Dovedale Wood"
      },
      "geometry": {
        "type": "Point",
        "coordinates": [
          -1.78706,
          53.071599
        ]
      }
    },
    {
      "type": "Feature",
      "properties": {
        "name": "Kinder Bank"
      },
      "geometry": {
        "type": "Point",
        "coordinates": [
          -1.927661,
          53.382223
        ]
      }
    },
    {
      "type": "Feature",
      "properties": {
        "name": "Monsal Dale"
      },
      "geometry": {
        "type": "Point",
        "coordinates": [
          -1.746765,
          53.239728
        ]
      }
    },
    {
      "type": "Feature",
      "properties": {
        "name": "Nabs Wood"
      },
      "geometry": {
        "type": "Point",
        "coordinates": [
          -1.747827,
          53.406958
        ]
      }
    },
    {
      "type": "Feature",
      "properties": {
        "name": "Padley Woods"
      },
      "geometry": {
        "type": "Point",
        "coordinates": [
          -1.621745,
          53.310813
        ]
      }
    },
    {
      "type": "Feature",
      "properties": {
        "name": "Rookery Wood"
      },
      "geometry": {
        "type": "Point",
        "coordinates": [
          -2.079911,
          53.186926
        ]
      }
    }
  ]
}